stop_id,stop_code,stop_name,stop_lat,stop_lon,stop_url
1,1,Serra Mall @ the Oval,37.428881,-122.169137,http://mybus.stanford.edu/stops/stopDepartures.cfm?stopid=1
2,2,Serra Mall @ the Main Quad,37.429012,-122.170065,http://mybus.stanford.edu/stops/stopDepartures.cfm?stopid=2
3,3,Serra Mall @ Memorial Auditorium,37.428438,-122.167105,http://mybus.stanford.edu/stops/stopDepartures.cfm?stopid=3
4,4,Serra Mall @ Hoover Tower,37.428234,-122.166383,http://mybus.stanford.edu/stops/stopDepartures.cfm?stopid=4
5,5,Galvez St @ Memorial Way,37.429284,-122.164968,http://mybus.stanford.edu/stops/stopDepartures.cfm?stopid=5
6,6,Galvez St @ Montag Hall,37.429524,-122.164779,http://mybus.stanford.edu/stops/stopDepartures.cfm?stopid=6
7,7,Galvez St @ the Alumni Center,37.430592,-122.164523,http://mybus.stanford.edu/stops/stopDepartures.cfm?stopid=7
8,8,Galvez St @ Visitor Center,37.431728,-122.164008,http://mybus.stanford.edu/stops/stopDepartures.cfm?stopid=8
10,10,Serra St @ Burnham Pavilion,37.427916,-122.164605,http://mybus.stanford.edu/stops/stopDepartures.cfm?stopid=10
11,11,Serra St @ Encina Hall,37.42773,-122.164061,http://mybus.stanford.edu/stops/stopDepartures.cfm?stopid=11
12,12,Serra St @ Campus Dr,37.42711,-122.160785,http://mybus.stanford.edu/stops/stopDepartures.cfm?stopid=12
13,13,Serra St @ Manzanita Field,37.427013,-122.160691,http://mybus.stanford.edu/stops/stopDepartures.cfm?stopid=13
14,14,Campus Dr @ Serra St,37.426142,-122.159459,http://mybus.stanford.edu/stops/stopDepartures.cfm?stopid=14
17,17,Campus Dr @ Escondido Rd,37.424045,-122.160693,http://mybus.stanford.edu/stops/stopDepartures.cfm?stopid=17
18,18,Campus Dr @ Mirrielees,37.424458,-122.160321,http://mybus.stanford.edu/stops/stopDepartures.cfm?stopid=18
19,19,Campus Dr @ Bowdoin St,37.422793,-122.161118,http://mybus.stanford.edu/stops/stopDepartures.cfm?stopid=19
20,20,Campus Dr @ Wilbur Parking Lot,37.422633,-122.161728,http://mybus.stanford.edu/stops/stopDepartures.cfm?stopid=20
21,21,Campus Dr @  Vaden Health Center,37.422375,-122.163704,http://mybus.stanford.edu/stops/stopDepartures.cfm?stopid=21
22,22,Campus Dr @ Wilbur Field,37.422629,-122.163872,http://mybus.stanford.edu/stops/stopDepartures.cfm?stopid=22
23,23,Campus Dr @ Munger Residences,37.422964,-122.165403,http://mybus.stanford.edu/stops/stopDepartures.cfm?stopid=23
24,24,Campus Dr @ Alvarado Row,37.422661,-122.165921,http://mybus.stanford.edu/stops/stopDepartures.cfm?stopid=24
25,25,Campus Dr @ Mayfield Ave North,37.421532,-122.168274,http://mybus.stanford.edu/stops/stopDepartures.cfm?stopid=25
26,26,Campus Drive @ Mayfield Ave South,37.42152,-122.168144,http://mybus.stanford.edu/stops/stopDepartures.cfm?stopid=26
27,27,Tresidder Student Union Westbound,37.42374038,-122.1705856,http://mybus.stanford.edu/stops/stopDepartures.cfm?stopid=27
28,28,Tresidder Student Union Eastbound,37.423601,-122.170571,http://mybus.stanford.edu/stops/stopDepartures.cfm?stopid=28
29,29,Santa Teresa St @ Lomita Dr,37.425342,-122.173242,http://mybus.stanford.edu/stops/stopDepartures.cfm?stopid=29
30,30,Santa Teresa @ New Guinea Garden,37.425259,-122.173494,http://mybus.stanford.edu/stops/stopDepartures.cfm?stopid=30
31,31,Samuel Morris Wy @ Panama St,37.426324,-122.174085,http://mybus.stanford.edu/stops/stopDepartures.cfm?stopid=31
32,32,Panama St @ Roble Gym,37.42647,-122.174228,http://mybus.stanford.edu/stops/stopDepartures.cfm?stopid=32
35,35,Santa Teresa St @ Roble Field,37.42609786,-122.176918,http://mybus.stanford.edu/stops/stopDepartures.cfm?stopid=35
36,36,Santa Teresa St @ West Residences,37.425952,-122.176686,http://mybus.stanford.edu/stops/stopDepartures.cfm?stopid=36
37,37,Santa Teresa St @ Governors Corner,37.426497,-122.180534,http://mybus.stanford.edu/stops/stopDepartures.cfm?stopid=37
38,38,Santa Teresa St @ Los Arboles Ave,37.426572,-122.180553,http://mybus.stanford.edu/stops/stopDepartures.cfm?stopid=38
39,39,Olmsted Rd @ Hoskins Court North,37.427126,-122.157483,http://mybus.stanford.edu/stops/stopDepartures.cfm?stopid=39
40,40,Olmsted Rd @ Hoskins Court South,37.427443,-122.156897,http://mybus.stanford.edu/stops/stopDepartures.cfm?stopid=40
41,41,82 Olmsted Rd North,37.429612,-122.153819,http://mybus.stanford.edu/stops/stopDepartures.cfm?stopid=41
42,42,82 Olmsted Rd South,37.4295,-122.153442,http://mybus.stanford.edu/stops/stopDepartures.cfm?stopid=42
43,43,Olmsted Rd @ Hulme Ct North,37.428629,-122.155575,http://mybus.stanford.edu/stops/stopDepartures.cfm?stopid=43
44,44,Olmsted Rd @ Hulme Ct South,37.428936,-122.154857,http://mybus.stanford.edu/stops/stopDepartures.cfm?stopid=44
45,45,Olmsted Rd @ Barnes Ct West,37.428876,-122.1519,http://mybus.stanford.edu/stops/stopDepartures.cfm?stopid=45
46,46,Olmsted Rd @ Barnes Ct East,37.428751,-122.151584,http://mybus.stanford.edu/stops/stopDepartures.cfm?stopid=46
47,47,Olmsted Rd @ Yale St East,37.426457,-122.150761,http://mybus.stanford.edu/stops/stopDepartures.cfm?stopid=47
48,48,Olmsted Rd @ Yale St West,37.426409,-122.150873,http://mybus.stanford.edu/stops/stopDepartures.cfm?stopid=48
49,49,California Ave @ El Camino Real,37.425437,-122.145424,http://mybus.stanford.edu/stops/stopDepartures.cfm?stopid=49
50,50,California Avenue near Ash St,37.426119,-122.144923,http://mybus.stanford.edu/stops/stopDepartures.cfm?stopid=50
51,51,California Ave @ Ash St,37.426659,-122.144623,http://mybus.stanford.edu/stops/stopDepartures.cfm?stopid=51
52,52,California Ave @ Birch St,37.427307,-122.144142,http://mybus.stanford.edu/stops/stopDepartures.cfm?stopid=52
53,53,California Ave @ Birch St,37.427532,-122.143721,http://mybus.stanford.edu/stops/stopDepartures.cfm?stopid=53
55,55,California Avenue Caltrain Station,37.428798,-122.14263,http://mybus.stanford.edu/stops/stopDepartures.cfm?stopid=55
61,62,Galvez St @ El Camino Real,37.437004,-122.161065,http://mybus.stanford.edu/stops/stopDepartures.cfm?stopid=62
62,63,El Camino Real @ Town & Country,37.437723,-122.16033,http://mybus.stanford.edu/stops/stopDepartures.cfm?stopid=63
63,64,El Camino Real @ PAMF,37.439116,-122.162419,http://mybus.stanford.edu/stops/stopDepartures.cfm?stopid=64
64,65,El Camino Real NB @ Palo Alto M,37.44008255,-122.16294097,http://mybus.stanford.edu/stops/stopDepartures.cfm?stopid=65
65,66,Palo Alto Transit Ctr (Caltrain),37.443087,-122.164417,http://mybus.stanford.edu/stops/stopDepartures.cfm?stopid=66
66,67,Lytton Ave @ Alma St,37.444391,-122.165114,http://mybus.stanford.edu/stops/stopDepartures.cfm?stopid=67
67,68,Emerson St @ University Ave,37.444461,-122.162536,http://mybus.stanford.edu/stops/stopDepartures.cfm?stopid=68
68,69,Quarry Rd near Falk,37.435472,-122.173137,http://mybus.stanford.edu/stops/stopDepartures.cfm?stopid=69
69,70,Quarry Rd @ Psychiatry Parking Lot,37.435811,-122.17274,http://mybus.stanford.edu/stops/stopDepartures.cfm?stopid=70
70,71,Quarry Rd @ Crate and Barrel,37.438749,-122.171541,http://mybus.stanford.edu/stops/stopDepartures.cfm?stopid=71
71,72,Quarry Rd @ Psychiatry,37.438332,-122.171459,http://mybus.stanford.edu/stops/stopDepartures.cfm?stopid=72
72,73,Quarry Ext @ Medical Center,37.43358612,-122.1739731,http://mybus.stanford.edu/stops/stopDepartures.cfm?stopid=73
73,74,Medical Center @ Quarry Rd,37.433709,-122.17385,http://mybus.stanford.edu/stops/stopDepartures.cfm?stopid=74
74,75,Quarry Ext @ Medical School,37.432775,-122.174237,http://mybus.stanford.edu/stops/stopDepartures.cfm?stopid=75
75,76,Serra Mall @ Via Ortega,37.430166,-122.175192,http://mybus.stanford.edu/stops/stopDepartures.cfm?stopid=76
77,78,Serra Mall @ Allen Building,37.430075,-122.175047,http://mybus.stanford.edu/stops/stopDepartures.cfm?stopid=78
78,79,Serra Mall @ Gates Building,37.429782,-122.173329,http://mybus.stanford.edu/stops/stopDepartures.cfm?stopid=79
79,80,Serra Mall @ Packard Electrical En,37.429587,-122.172769,http://mybus.stanford.edu/stops/stopDepartures.cfm?stopid=80
80,81,Campus Dr @ Panama St,37.430775,-122.178021,http://mybus.stanford.edu/stops/stopDepartures.cfm?stopid=81
81,82,Campus Dr @ Medical School Office,37.431113,-122.178451,http://mybus.stanford.edu/stops/stopDepartures.cfm?stopid=82
82,84,Stanford Guest House @ SLAC,37.420039,-122.20254,http://mybus.stanford.edu/stops/stopDepartures.cfm?stopid=84
83,85,Sand Hill Rd South @ Sharon Pk Dr,37.423894,-122.194993,http://mybus.stanford.edu/stops/stopDepartures.cfm?stopid=85
84,86,Sand Hill Rd North @ Sharon Pk Dr,37.423536,-122.195894,http://mybus.stanford.edu/stops/stopDepartures.cfm?stopid=86
85,87,Parking Structure 5 (West),37.431425,-122.181404,http://mybus.stanford.edu/stops/stopDepartures.cfm?stopid=87
86,88,Stock Farm Lot @ Oak and Welch,37.432374,-122.180357,http://mybus.stanford.edu/stops/stopDepartures.cfm?stopid=88
87,89,Parking Structure 5 (East),37.431357,-122.181282,http://mybus.stanford.edu/stops/stopDepartures.cfm?stopid=89
89,91,Sand Hill Rd @ Stock Farm Rd,37.43172,-122.186115,http://mybus.stanford.edu/stops/stopDepartures.cfm?stopid=91
90,92,Sand Hill Rd @ Oak Creek Apts,37.430085,-122.188042,http://mybus.stanford.edu/stops/stopDepartures.cfm?stopid=92
91,93,Panama St @ Via Ortega - Y2E2,37.427611,-122.176286,http://mybus.stanford.edu/stops/stopDepartures.cfm?stopid=93
93,95,Serra Mall @ Lasuen Mall,37.428612,-122.168176,http://mybus.stanford.edu/stops/stopDepartures.cfm?stopid=95
94,96,Campus Oval,37.429227,-122.169004,http://mybus.stanford.edu/stops/stopDepartures.cfm?stopid=96
95,97,Galvez St @ Serra Mall,37.428113,-122.165378,http://mybus.stanford.edu/stops/stopDepartures.cfm?stopid=97
96,98,Serra St @ Knight Management Ctr,37.427525,-122.162783,http://mybus.stanford.edu/stops/stopDepartures.cfm?stopid=98
97,99,Serra St @ Schwab Residential Ctr,37.427388,-122.162572,http://mybus.stanford.edu/stops/stopDepartures.cfm?stopid=99
98,100,Hoover Pavilion,37.44165,-122.1684,http://mybus.stanford.edu/stops/stopDepartures.cfm?stopid=100
99,101,Quarry Rd @ Hoover Pavilion,37.442178,-122.169041,http://mybus.stanford.edu/stops/stopDepartures.cfm?stopid=101
100,102,Quarry Rd @ Stanford Shopping Ctr,37.442072,-122.169487,http://mybus.stanford.edu/stops/stopDepartures.cfm?stopid=102
101,103,Roth Way @ Quarry Extension,37.432589,-122.174132,http://mybus.stanford.edu/stops/stopDepartures.cfm?stopid=103
102,104,Roth Way @ Cantor Arts Center,37.431909,-122.17074,http://mybus.stanford.edu/stops/stopDepartures.cfm?stopid=104
103,105,Stanford Hospital,37.433153,-122.176867,http://mybus.stanford.edu/stops/stopDepartures.cfm?stopid=105
106,108,Stanford West Apartments,37.438755,-122.178719,http://mybus.stanford.edu/stops/stopDepartures.cfm?stopid=108
107,109,Oak Rd East @ EH&S,37.429293,-122.18429,http://mybus.stanford.edu/stops/stopDepartures.cfm?stopid=109
108,110,Oak Rd West @ EH&S,37.429408,-122.184383,http://mybus.stanford.edu/stops/stopDepartures.cfm?stopid=110
114,114,San Antonio Ave @ San Antonio,37.402149,-122.112871,http://mybus.stanford.edu/stops/stopDepartures.cfm?stopid=114
116,115,California Ave @ Yale St,37.424287,-122.146579,http://mybus.stanford.edu/stops/stopDepartures.cfm?stopid=115
119,119,Hanover St North @ Page Mill Rd,37.41747,-122.147622,http://mybus.stanford.edu/stops/stopDepartures.cfm?stopid=119
120,120,Hanover St South @ Page Mill Rd,37.417421,-122.147269,http://mybus.stanford.edu/stops/stopDepartures.cfm?stopid=120
121,118,Hanover St @ California Ave,37.41947,-122.150449,http://mybus.stanford.edu/stops/stopDepartures.cfm?stopid=118
124,121,Hanover St @ California Ave,37.419068,-122.150605,http://mybus.stanford.edu/stops/stopDepartures.cfm?stopid=121
127,126,El Camino @ Cal Ave to Campus,37.425347,-122.146088,http://mybus.stanford.edu/stops/stopDepartures.cfm?stopid=126
128,127, El Camino @ California Ave OB,37.424822,-122.145674,http://mybus.stanford.edu/stops/stopDepartures.cfm?stopid=127
131,134,1000 Welch Road.,37.435824,-122.178558,http://mybus.stanford.edu/stops/stopDepartures.cfm?stopid=134
133,136,900 Welch Road,37.436395,-122.177823,http://mybus.stanford.edu/stops/stopDepartures.cfm?stopid=136
134,137,# 137 -  780 Welch Road,37.437145,-122.176719,http://mybus.stanford.edu/stops/stopDepartures.cfm?stopid=137
141,142,Olmsted Rd @ Wellesley St,37.42519,-122.152195,http://mybus.stanford.edu/stops/stopDepartures.cfm?stopid=142
142,143,Olmsted Rd @ Oberlin St,37.42296,-122.153909,http://mybus.stanford.edu/stops/stopDepartures.cfm?stopid=143
145,146,3300 Hillview Ave,37.407043,-122.145384,http://mybus.stanford.edu/stops/stopDepartures.cfm?stopid=146
146,147,Miranda Ave @ Hillview Ave,37.404443,-122.145427,http://mybus.stanford.edu/stops/stopDepartures.cfm?stopid=147
147,148,VA Hospital,37.404005,-122.14128,http://mybus.stanford.edu/stops/stopDepartures.cfm?stopid=148
148,149,3375 Hillview,37.405029,-122.145653,http://mybus.stanford.edu/stops/stopDepartures.cfm?stopid=149
150,151,Vi,37.43979644,-122.17570261,http://mybus.stanford.edu/stops/stopDepartures.cfm?stopid=151
152,153,El Camino Real @ Serra St,37.429625,-122.15156,http://mybus.stanford.edu/stops/stopDepartures.cfm?stopid=153
158,159,1500 Page Mill Rd,37.413995,-122.149751,http://mybus.stanford.edu/stops/stopDepartures.cfm?stopid=159
160,160,Pasteur Dr North @ Sand Hill Rd,37.434271,-122.181231,http://mybus.stanford.edu/stops/stopDepartures.cfm?stopid=160
161,161,Pasteur Dr South @ Sand Hill Rd,37.434186,-122.181619,http://mybus.stanford.edu/stops/stopDepartures.cfm?stopid=161
167,163,Page Mill Rd @ Peter Coutts West,37.411855,-122.151519,http://mybus.stanford.edu/stops/stopDepartures.cfm?stopid=163
168,164,Page Mill Rd @ Peter Coutts East,37.412171,-122.150933,http://mybus.stanford.edu/stops/stopDepartures.cfm?stopid=164
169,165,El Camino Real @ Galvez St,37.436861,-122.159819,http://mybus.stanford.edu/stops/stopDepartures.cfm?stopid=165
177,173,SLAC Central Lab,37.418011,-122.204163,http://mybus.stanford.edu/stops/stopDepartures.cfm?stopid=173
179,175,SLAC Fire Station,37.417851,-122.205388,http://mybus.stanford.edu/stops/stopDepartures.cfm?stopid=175
180,176,SLAC Kavli Bldg,37.4201,-122.205707,http://mybus.stanford.edu/stops/stopDepartures.cfm?stopid=176
181,177,Campus Dr @ Li Ka Shing,37.430736,-122.176297,http://mybus.stanford.edu/stops/stopDepartures.cfm?stopid=177
182,178,Campus Dr @ Cogen/Li Ka Shing,37.4305,-122.176032,http://mybus.stanford.edu/stops/stopDepartures.cfm?stopid=178
184,180,Roth Wy @ Campus Dr,37.432292,-122.17266,http://mybus.stanford.edu/stops/stopDepartures.cfm?stopid=180
185,154,Ardenwood Park & Ride lot,37.551357,-122.054825,http://mybus.stanford.edu/stops/stopDepartures.cfm?stopid=154
188,183,Page Mill Rd @ El Camino Real,37.42261032,-122.1425451,http://mybus.stanford.edu/stops/stopDepartures.cfm?stopid=183
189,184,Page Mill @ Hanover (RP),37.417493,-122.146876,http://mybus.stanford.edu/stops/stopDepartures.cfm?stopid=184
190,185,Hillview Ave @ Porter Dr,37.408678,-122.146608,http://mybus.stanford.edu/stops/stopDepartures.cfm?stopid=185
191,186,Hillview Ave @ Coyote Hill Rd W,37.401312,-122.145402,http://mybus.stanford.edu/stops/stopDepartures.cfm?stopid=186
192,187,3431 Hillview Ave West,37.398543,-122.14441,http://mybus.stanford.edu/stops/stopDepartures.cfm?stopid=187
193,188,1070 Arastradero Rd Side,37.394681,-122.146373,http://mybus.stanford.edu/stops/stopDepartures.cfm?stopid=188
194,189,3495 Deer Creek Rd East,37.39409057,-122.1486518,http://mybus.stanford.edu/stops/stopDepartures.cfm?stopid=189
195,190,3475 Deer Creek Rd East,37.395278,-122.149539,http://mybus.stanford.edu/stops/stopDepartures.cfm?stopid=190
196,191,3475 Deer Creek Rd West,37.395463,-122.150006,http://mybus.stanford.edu/stops/stopDepartures.cfm?stopid=191
197,192,3495 Deer Creek Rd West,37.393866,-122.148711,http://mybus.stanford.edu/stops/stopDepartures.cfm?stopid=192
198,193,1070 Arastradero Rd Front,37.394153,-122.146616,http://mybus.stanford.edu/stops/stopDepartures.cfm?stopid=193
199,194,3431 Hillview Ave,37.398935,-122.144397,http://mybus.stanford.edu/stops/stopDepartures.cfm?stopid=194
200,195,Hillview Ave (East) @ Coyote Hill,37.402242,-122.145527,http://mybus.stanford.edu/stops/stopDepartures.cfm?stopid=195
201,196,Porter Dr @ Hillview Ave,37.408784,-122.147473,http://mybus.stanford.edu/stops/stopDepartures.cfm?stopid=196
202,197,Page Mill @ Hanover East (RP),37.417486,-122.146542,http://mybus.stanford.edu/stops/stopDepartures.cfm?stopid=197
204,199,3145 Porter Dr,37.408737,-122.151617,http://mybus.stanford.edu/stops/stopDepartures.cfm?stopid=199
211,206,Rosewood Hotel,37.420013,-122.211784,http://mybus.stanford.edu/stops/stopDepartures.cfm?stopid=206
212,212,El Camino Real @ Safeway,37.450735,-122.177891,http://mybus.stanford.edu/stops/stopDepartures.cfm?stopid=212
213,213,El Camino Real @ Staples,37.451559,-122.178719,http://mybus.stanford.edu/stops/stopDepartures.cfm?stopid=213
214,214,Menlo Park Caltrain,37.454616,-122.182422,http://mybus.stanford.edu/stops/stopDepartures.cfm?stopid=214
216,216,Palo Alto Transit Ctr Bus Depot,37.444115,-122.166435,http://mybus.stanford.edu/stops/stopDepartures.cfm?stopid=216
217,217,El Camino Real @ Palo Alto Square,37.422582,-122.141474,http://mybus.stanford.edu/stops/stopDepartures.cfm?stopid=217
218,218,El Camino Real @ Page Mill P&R,37.423427,-122.142365,http://mybus.stanford.edu/stops/stopDepartures.cfm?stopid=218
219,219,El Camino Real @ Hansen Way,37.420571,-122.137604,http://mybus.stanford.edu/stops/stopDepartures.cfm?stopid=219
220,220,El Camino Real @ Portage - Frys,37.421162,-122.138125,http://mybus.stanford.edu/stops/stopDepartures.cfm?stopid=220
221,221,El Camino Real @ Maybell Ave,37.412124,-122.124914,http://mybus.stanford.edu/stops/stopDepartures.cfm?stopid=221
222,222,El Camino Real @ El Camino Wy,37.412509,-122.1248,http://mybus.stanford.edu/stops/stopDepartures.cfm?stopid=222
223,223,Calif. St @ San Antonio Shopping,37.405004,-122.108985,http://mybus.stanford.edu/stops/stopDepartures.cfm?stopid=223
224,124,Showers Dr @ San Antonio Shopping,37.401294,-122.108099,http://mybus.stanford.edu/stops/stopDepartures.cfm?stopid=124
225,224,Panama St @ Via Ortega / L-25,37.427581,-122.176485,http://mybus.stanford.edu/stops/stopDepartures.cfm?stopid=224
227,226,Panama St @ Campus Dr,37.430676,-122.178398,http://mybus.stanford.edu/stops/stopDepartures.cfm?stopid=226
228,227,Roth Way @ Lokey,37.432131,-122.172435,http://mybus.stanford.edu/stops/stopDepartures.cfm?stopid=227
229,228,700 Welch Rd @ Barn and  LPCH,37.437169,-122.173735,http://mybus.stanford.edu/stops/stopDepartures.cfm?stopid=228
230,229,Searsville Rd @ Fremont Rd,37.428731,-122.183352,http://mybus.stanford.edu/stops/stopDepartures.cfm?stopid=229
234,232,Stanford West Bus Shelter,37.438915,-122.178588,http://mybus.stanford.edu/stops/stopDepartures.cfm?stopid=232
235,240,Campus Dr @ Stock Farm Path,37.430286,-122.180234,http://mybus.stanford.edu/stops/stopDepartures.cfm?stopid=240
236,241,Campus Dr @ Stock Farm Rd,37.429663,-122.180355,http://mybus.stanford.edu/stops/stopDepartures.cfm?stopid=241
237,242,Page Mill Rd & Hansen St,37.418632,-122.145915,http://mybus.stanford.edu/stops/stopDepartures.cfm?stopid=242
238,243,Page Mill Rd @ Hansen St,37.419166,-122.145134,http://mybus.stanford.edu/stops/stopDepartures.cfm?stopid=243
239,244,Lucas MRI on Welch Road,37.433454,-122.179601,http://mybus.stanford.edu/stops/stopDepartures.cfm?stopid=244
240,245,Welch Road @ Lucas MRI,37.433166,-122.179878,http://mybus.stanford.edu/stops/stopDepartures.cfm?stopid=245
241,246,El Camino @ Park Blvd,37.430258,-122.151809,http://mybus.stanford.edu/stops/stopDepartures.cfm?stopid=246
242,250,Olmsted @ Studio 6,37.425142,-122.152323,http://mybus.stanford.edu/stops/stopDepartures.cfm?stopid=250
245,255,3170 Porter,37.407949,-122.150317,http://mybus.stanford.edu/stops/stopDepartures.cfm?stopid=255
246,258,Quarry Road @ Stanford Barn,37.437593,-122.172127,http://mybus.stanford.edu/stops/stopDepartures.cfm?stopid=258
247,259,4100 Bohannon,37.481084,-122.177114,http://mybus.stanford.edu/stops/stopDepartures.cfm?stopid=259
248,260,4700 Bohannon,37.479701,-122.174724,http://mybus.stanford.edu/stops/stopDepartures.cfm?stopid=260
250,256,3165 Porter,37.408008,-122.150186,http://mybus.stanford.edu/stops/stopDepartures.cfm?stopid=256
253,211,Menlo Caltrain - Merrill @ S Cruz,37.454233,-122.182109,http://mybus.stanford.edu/stops/stopDepartures.cfm?stopid=211
256,262,145 El Camino Real - MP,37.44809,-122.173819,http://mybus.stanford.edu/stops/stopDepartures.cfm?stopid=262
257,263,300 El Camino in MP,37.448419,-122.173821,http://mybus.stanford.edu/stops/stopDepartures.cfm?stopid=263
258,265,PA Tech Stop 1,37.450538,-122.114341,http://mybus.stanford.edu/stops/stopDepartures.cfm?stopid=265
259,266,PA Tech Stop 2,37.449714,-122.114235,http://mybus.stanford.edu/stops/stopDepartures.cfm?stopid=266
260,267,Bowdoin @ Pine Hill Court,37.420217,-122.158265,http://mybus.stanford.edu/stops/stopDepartures.cfm?stopid=267
261,277,Bowdoin @ LG Rains Houses #227,37.421896,-122.160475,http://mybus.stanford.edu/stops/stopDepartures.cfm?stopid=277
262,280,Quarry Extension-Mid Block Bench,37.432995,-122.174047,http://mybus.stanford.edu/stops/stopDepartures.cfm?stopid=280
263,155,Union City BART Station,37.589874,-122.016563,http://mybus.stanford.edu/stops/stopDepartures.cfm?stopid=155
264,156,Fremont BART Station,37.557681,-121.975618,http://mybus.stanford.edu/stops/stopDepartures.cfm?stopid=156
265,257,Bohannon Drive @ Campbell Avenue,37.478576,-122.18201,http://mybus.stanford.edu/stops/stopDepartures.cfm?stopid=257
266,268,Ringwood @ MAHS,37.460188,-122.173632,http://mybus.stanford.edu/stops/stopDepartures.cfm?stopid=268
267,269,Ringwood @ Middlefield,37.460544,-122.173309,http://mybus.stanford.edu/stops/stopDepartures.cfm?stopid=269
268,270,1755 Embarcadero,37.450432,-122.118522,http://mybus.stanford.edu/stops/stopDepartures.cfm?stopid=270
269,271,1730 Embarcadero,37.450181,-122.118674,http://mybus.stanford.edu/stops/stopDepartures.cfm?stopid=271
270,290,Oak Creek Club,37.432686,-122.187597,http://mybus.stanford.edu/stops/stopDepartures.cfm?stopid=290
271,253,Flood Park on Bay Road,37.475654,-122.175648,http://mybus.stanford.edu/stops/stopDepartures.cfm?stopid=253
272,254,Bay Road at Flood Park,37.475478,-122.175416,http://mybus.stanford.edu/stops/stopDepartures.cfm?stopid=254
273,272,1072 Embarcadero @ Wildwood,37.446778,-122.127318,http://mybus.stanford.edu/stops/stopDepartures.cfm?stopid=272
274,273,991 Embarcadero @ N. Cal Ave.,37.446371,-122.128873,http://mybus.stanford.edu/stops/stopDepartures.cfm?stopid=273
278,251,BOH at Cambell Tracks,37.478473,-122.181921,http://mybus.stanford.edu/stops/stopDepartures.cfm?stopid=251
279,61,Palo Alto HS on Emarcadero,37.437717,-122.158323,http://mybus.stanford.edu/stops/stopDepartures.cfm?stopid=61
